{"type":"FeatureCollection","features":[{"type":"Feature","geometry":{"type":"Point","coordinates":[-3.188415,55.944305]},"properties":{"location":"trades.rare.cable","rgb-string":"#40ff00","marker-color":"#40ff00","marker-symbol":"lighthouse"}},{"type":"Feature","geometry":{"type":"Point","coordinates":[-3.18803,55.944979]},"properties":{"location":"agents.mile.crib","rgb-string":"#c0ff00","marker-color":"#c0ff00","marker-symbol":"lighthouse"}},{"type":"Feature","geometry":{"type":"Point","coordinates":[-3.190438,55.945383]},"properties":{"location":"jump.crop.fits","rgb-string":"#ffc000","marker-color":"#ffc000","marker-symbol":"danger"}},{"type":"Feature","geometry":{"type":"Point","coordinates":[-3.184754,55.943012]},"properties":{"location":"courier.assume.bill","rgb-string":"#ffc000","marker-color":"#ffc000","marker-symbol":"danger"}},{"type":"Feature","geometry":{"type":"Point","coordinates":[-3.191113,55.943901]},"properties":{"location":"spicy.bunch.shady","rgb-string":"#00ff00","marker-color":"#00ff00","marker-symbol":"lighthouse"}},{"type":"Feature","geometry":{"type":"Point","coordinates":[-3.186537,55.944925]},"properties":{"location":"laws.merit.bleak","rgb-string":"#ff4000","marker-color":"#ff4000","marker-symbol":"danger"}},{"type":"Feature","geometry":{"type":"Point","coordinates":[-3.189957,55.94603]},"properties":{"location":"love.behind.orchestra","rgb-string":"#000000","marker-color":"#000000","marker-symbol":"cross"}},{"type":"Feature","geometry":{"type":"Point","coordinates":[-3.184658,55.943874]},"properties":{"location":"rider.mile.lime","rgb-string":"#ff0000","marker-color":"#ff0000","marker-symbol":"danger"}},{"type":"Feature","geometry":{"type":"Point","coordinates":[-3.190727,55.943092]},"properties":{"location":"relate.chill.vest","rgb-string":"#40ff00","marker-color":"#40ff00","marker-symbol":"lighthouse"}},{"type":"Feature","geometry":{"type":"Point","coordinates":[-3.190053,55.943173]},"properties":{"location":"shows.fries.lamp","rgb-string":"#40ff00","marker-color":"#40ff00","marker-symbol":"lighthouse"}},{"type":"Feature","geometry":{"type":"Point","coordinates":[-3.189379,55.943281]},"properties":{"location":"rents.cone.stove","rgb-string":"#40ff00","marker-color":"#40ff00","marker-symbol":"lighthouse"}},{"type":"Feature","geometry":{"type":"Point","coordinates":[-3.185332,55.946138]},"properties":{"location":"prime.rent.silk","rgb-string":"#ff0000","marker-color":"#ff0000","marker-symbol":"danger"}},{"type":"Feature","geometry":{"type":"Point","coordinates":[-3.184803,55.943173]},"properties":{"location":"brings.remedy.latter","rgb-string":"#ff4000","marker-color":"#ff4000","marker-symbol":"danger"}},{"type":"Feature","geometry":{"type":"Point","coordinates":[-3.189908,55.942904]},"properties":{"location":"second.launch.miles","rgb-string":"#40ff00","marker-color":"#40ff00","marker-symbol":"lighthouse"}},{"type":"Feature","geometry":{"type":"Point","coordinates":[-3.187693,55.942769]},"properties":{"location":"panic.squad.danger","rgb-string":"#c0ff00","marker-color":"#c0ff00","marker-symbol":"lighthouse"}},{"type":"Feature","geometry":{"type":"Point","coordinates":[-3.18697,55.942688]},"properties":{"location":"strut.river.surely","rgb-string":"#ff8000","marker-color":"#ff8000","marker-symbol":"danger"}},{"type":"Feature","geometry":{"type":"Point","coordinates":[-3.189138,55.944197]},"properties":{"location":"spoon.invest.every","rgb-string":"#40ff00","marker-color":"#40ff00","marker-symbol":"lighthouse"}},{"type":"Feature","geometry":{"type":"Point","coordinates":[-3.185814,55.943551]},"properties":{"location":"record.sofa.sock","rgb-string":"#c0ff00","marker-color":"#c0ff00","marker-symbol":"lighthouse"}},{"type":"Feature","geometry":{"type":"Point","coordinates":[-3.187307,55.944494]},"properties":{"location":"only.fairly.rift","rgb-string":"#ffc000","marker-color":"#ffc000","marker-symbol":"danger"}},{"type":"Feature","geometry":{"type":"Point","coordinates":[-3.188945,55.943928]},"properties":{"location":"noted.friday.jams","rgb-string":"#00ff00","marker-color":"#00ff00","marker-symbol":"lighthouse"}},{"type":"Feature","geometry":{"type":"Point","coordinates":[-3.186344,55.942958]},"properties":{"location":"hers.banks.goat","rgb-string":"#ff4000","marker-color":"#ff4000","marker-symbol":"danger"}},{"type":"Feature","geometry":{"type":"Point","coordinates":[-3.185236,55.944575]},"properties":{"location":"acid.chair.butter","rgb-string":"#ff4000","marker-color":"#ff4000","marker-symbol":"danger"}},{"type":"Feature","geometry":{"type":"Point","coordinates":[-3.191594,55.945195]},"properties":{"location":"hills.feels.tunes","rgb-string":"#ff4000","marker-color":"#ff4000","marker-symbol":"danger"}},{"type":"Feature","geometry":{"type":"Point","coordinates":[-3.187355,55.943604]},"properties":{"location":"shut.stands.media","rgb-string":"#c0ff00","marker-color":"#c0ff00","marker-symbol":"lighthouse"}},{"type":"Feature","geometry":{"type":"Point","coordinates":[-3.186729,55.945653]},"properties":{"location":"hidden.handle.softly","rgb-string":"#ffc000","marker-color":"#ffc000","marker-symbol":"danger"}},{"type":"Feature","geometry":{"type":"Point","coordinates":[-3.191883,55.946003]},"properties":{"location":"stone.undulation.poems","rgb-string":"#c0ff00","marker-color":"#c0ff00","marker-symbol":"lighthouse"}},{"type":"Feature","geometry":{"type":"Point","coordinates":[-3.191065,55.944709]},"properties":{"location":"estate.gave.votes","rgb-string":"#80ff00","marker-color":"#80ff00","marker-symbol":"lighthouse"}},{"type":"Feature","geometry":{"type":"Point","coordinates":[-3.188801,55.945437]},"properties":{"location":"shady.soft.phones","rgb-string":"#ffc000","marker-color":"#ffc000","marker-symbol":"danger"}},{"type":"Feature","geometry":{"type":"Point","coordinates":[-3.186729,55.945168]},"properties":{"location":"dragon.bottle.crisp","rgb-string":"#ff4000","marker-color":"#ff4000","marker-symbol":"danger"}},{"type":"Feature","geometry":{"type":"Point","coordinates":[-3.185525,55.943982]},"properties":{"location":"manliness.poem.cliff","rgb-string":"#ffc000","marker-color":"#ffc000","marker-symbol":"danger"}},{"type":"Feature","geometry":{"type":"Point","coordinates":[-3.190294,55.943712]},"properties":{"location":"sculpture.shot.melon","rgb-string":"#40ff00","marker-color":"#40ff00","marker-symbol":"lighthouse"}},{"type":"Feature","geometry":{"type":"Point","coordinates":[-3.18514,55.943685]},"properties":{"location":"hello.love.keys","rgb-string":"#ffc000","marker-color":"#ffc000","marker-symbol":"danger"}},{"type":"Feature","geometry":{"type":"Point","coordinates":[-3.187645,55.944143]},"properties":{"location":"bound.ends.matter","rgb-string":"#000000","marker-color":"#000000","marker-symbol":"cross"}},{"type":"Feature","geometry":{"type":"LineString","coordinates":[[-3.1878,55.9444],[-3.18765,55.9441402],[-3.1874202,55.944333],[-3.187613,55.9445628],[-3.1878428,55.9447557],[-3.1880357,55.9449855],[-3.1881857,55.9447257],[-3.1883357,55.9444659],[-3.1885655,55.944273],[-3.1887953,55.9440802],[-3.1890251,55.9438874],[-3.1891277,55.9441693],[-3.1892303,55.9438874],[-3.1892824,55.9435919],[-3.189385,55.94331],[-3.1896148,55.9431172],[-3.1898447,55.9429243],[-3.1900375,55.9431542],[-3.1901401,55.9434361],[-3.1902901,55.9436959],[-3.1904829,55.9434661],[-3.1906329,55.9432063],[-3.1907829,55.9434661],[-3.1909758,55.9436959],[-3.1911258,55.9439557],[-3.1910737,55.9442511],[-3.1910737,55.9445511],[-3.1912665,55.9447809],[-3.1914593,55.9450108],[-3.1916522,55.9452406],[-3.1917548,55.9455225],[-3.1918069,55.9458179],[-3.1919095,55.9460998],[-3.1916497,55.9459498],[-3.1913899,55.9457998],[-3.191108,55.9456972],[-3.1908482,55.9455472],[-3.1905662,55.9454446],[-3.1903364,55.9456374],[-3.1901066,55.9458303],[-3.1899138,55.9460601],[-3.189654,55.9459101],[-3.1893942,55.9457601],[-3.1891344,55.9456101],[-3.1888746,55.9454601],[-3.1885746,55.9454601],[-3.1882746,55.9454601],[-3.1879791,55.9455122],[-3.1876837,55.9455643],[-3.1873837,55.9455643],[-3.1870882,55.9456164],[-3.1867882,55.9456164],[-3.1867361,55.9453209],[-3.1865861,55.9450611],[-3.1863042,55.9449585],[-3.1860223,55.9448559],[-3.1857404,55.9447533],[-3.1854585,55.9446507],[-3.1851766,55.9445481],[-3.1853266,55.9442883],[-3.1854766,55.9440285],[-3.1852838,55.9437987],[-3.1849883,55.9438508],[-3.1846883,55.9438508],[-3.1847404,55.9435553],[-3.1847925,55.9432599],[-3.1847404,55.9429644],[-3.1850002,55.9431144],[-3.18526,55.9432644],[-3.1855198,55.9434144],[-3.1857796,55.9435644],[-3.1859725,55.9433346],[-3.1862023,55.9431418],[-3.1863951,55.942912],[-3.186677,55.9428094],[-3.1869589,55.9427068],[-3.1872544,55.9427589],[-3.1875544,55.9427589],[-3.1875023,55.9430543],[-3.1873997,55.9433362],[-3.1873476,55.9436316],[-3.1871548,55.9438615],[-3.1869619,55.9440913],[-3.1871548,55.9443211],[-3.1872068,55.9446165],[-3.1869114,55.9446686],[-3.1866516,55.9448186],[-3.1863918,55.9449686],[-3.186199,55.9451984],[-3.1860061,55.9454283],[-3.1858133,55.9456581],[-3.1855835,55.9458509],[-3.1853906,55.9460807],[-3.1856504,55.9459307],[-3.1858803,55.9457379],[-3.1861401,55.9455879],[-3.1863699,55.945395],[-3.1866297,55.945245],[-3.1869116,55.9453476],[-3.1867188,55.9451178],[-3.1869116,55.9453476],[-3.1867188,55.9451178],[-3.1869116,55.9453476],[-3.1867188,55.9451178],[-3.1869116,55.9453476],[-3.1867188,55.9451178],[-3.1869116,55.9453476],[-3.1867188,55.9451178],[-3.1869116,55.9453476],[-3.1867188,55.9451178],[-3.1869116,55.9453476],[-3.1867188,55.9451178],[-3.1869116,55.9453476],[-3.1867188,55.9451178],[-3.1869116,55.9453476],[-3.1867188,55.9451178],[-3.1869116,55.9453476],[-3.1867188,55.9451178],[-3.1869116,55.9453476],[-3.1867188,55.9451178],[-3.1869116,55.9453476],[-3.1867188,55.9451178],[-3.1869116,55.9453476],[-3.1867188,55.9451178],[-3.1869116,55.9453476],[-3.1867188,55.9451178],[-3.1869116,55.9453476],[-3.1867188,55.9451178],[-3.1869116,55.9453476],[-3.1867188,55.9451178],[-3.1869116,55.9453476],[-3.1867188,55.9451178],[-3.1869116,55.9453476],[-3.1867188,55.9451178],[-3.1869116,55.9453476],[-3.1867188,55.9451178],[-3.1869116,55.9453476],[-3.1867188,55.9451178],[-3.1869116,55.9453476],[-3.1867188,55.9451178],[-3.1869116,55.9453476],[-3.1867188,55.9451178],[-3.1869116,55.9453476],[-3.1867188,55.9451178],[-3.1869116,55.9453476],[-3.1867188,55.9451178],[-3.1869116,55.9453476],[-3.1867188,55.9451178],[-3.1869116,55.9453476],[-3.1867188,55.9451178],[-3.1869116,55.9453476]]},"properties":{}},{"type":"Feature","geometry":{"type":"Polygon","coordinates":[[[-3.1871805,55.9444875],[-3.1870423,55.9441939],[-3.1869766,55.9442036],[-3.1868975,55.9440482],[-3.1863302,55.9441323],[-3.1864053,55.9442967],[-3.1863034,55.944311],[-3.1863396,55.9443711],[-3.1864093,55.9443621],[-3.1864254,55.9443974],[-3.1862269,55.9444237],[-3.1863946,55.9445701],[-3.1864308,55.9445859],[-3.1864884,55.9445919],[-3.1871805,55.9444875]]]},"properties":{"name":"Appleton Tower","fill":"#ff0000"}},{"type":"Feature","geometry":{"type":"Polygon","coordinates":[[[-3.1866977,55.9433602],[-3.1865562,55.9430666],[-3.1863456,55.9430985],[-3.1864864,55.9433925],[-3.1866977,55.9433602]]]},"properties":{"name":"David Hume Tower","fill":"#ff0000"}},{"type":"Feature","geometry":{"type":"Polygon","coordinates":[[[-3.1897084,55.9428082],[-3.1894751,55.9423313],[-3.1882721,55.9425145],[-3.1885055,55.942993],[-3.1897084,55.9428082]]]},"properties":{"name":"Main Library","fill":"#ff0000"}},{"type":"Feature","geometry":{"type":"Polygon","coordinates":[[[-3.188079,55.945418],[-3.1876338,55.9445829],[-3.1869176,55.9447015],[-3.1870463,55.9449419],[-3.1869096,55.9449644],[-3.1867808,55.9448157],[-3.1865662,55.9448773],[-3.1871134,55.9455532],[-3.1872958,55.9455051],[-3.1878322,55.9454601],[-3.188079,55.945418]]]},"properties":{"name":"Informatics Forum","fill":"#ff0000"}},{"type":"Feature","geometry":{"type":"Polygon","coordinates":[[[-3.192473,55.946233],[-3.184319,55.946233],[-3.184319,55.942617],[-3.192473,55.942617]]]},"properties":{}}]}